address,mean_profile_views,lon,lat
"Aachen, DE",966.1428571428572,6.083886800000001,50.7753455
"Aalen, DE",3300,10.0971163,48.8366887
"Aarau, CH",7125.470588235294,8.0457015,47.390434
"Aarbergen, DE",7055,8.0814608,50.2482114
"Aarburg, CH",7096.666666666667,7.9066923,47.3205914
"Abtsgmünd, DE",208,10.001692,48.8910782
"Achstetten, DE",472,9.8951519,48.2613953
"Adenau, DE",1949,6.9316299,50.3825077
"Adligenswil, CH",3520,8.3647405,47.071186
"Adliswil, CH",2546,8.5270459,47.3124347
"Aesch (BL), CH",5574,7.597934399999999,47.4672734
"Agliate, IT",2150,9.239394899999999,45.6877562
"Ahmedabad, IN",3380,72.5713621,23.022505
"Aigle, CH",3363,6.970566,46.3190253
"Aigueperse, FR",117,3.2000099,46.01672
"Aix-en-Provence, FR",3623.5,5.447426999999999,43.529742
"Aix-les-Bains, FR",575,5.908998,45.692341
"Albbruck, DE",7103,8.1362987,47.59465729999999
"Albens, FR",677,5.943959,45.785606
"Albertville, FR",2638.3333333333335,6.392726,45.675535000000004
"Albiez-Montrond, FR",519,6.336410799999999,45.1801989
"Albigny-sur-Saône, FR",4033,4.828723999999999,45.866712
"Albligen, CH",935,8.227511999999999,46.818188
"Albstadt, DE",1081,9.0234259,48.2137038
"Alfter, DE",1760.3333333333333,7.010702299999999,50.7380266
"Allan, FR",502,4.7863681,44.499216
"Allschwil, CH",3952,7.5433615,47.5528925
"Alpenrod, DE",1283,7.8700607,50.6313057
"Alsdorf, DE",185.5,6.164839199999999,50.87158849999999
"Altdorf, CH",5979,8.642843599999999,46.8821272
"Altendorf, CH",1132.5,8.829904299999999,47.1914822
"Altenkirchen (Westerwald), DE",1210,7.6359735,50.6854009
"Altenstadt, DE",1091,8.943386499999999,50.2882863
"Althengstett, DE",969,8.7910466,48.72433299999999
"Altkirch, FR",4246.5,7.243036000000001,47.620391
"Altstätten, CH",469,9.5469133,47.3774633
"Alzenau, DE",298,9.058741399999999,50.0894084
"Alzey, DE",8568.333333333334,8.1171135,49.74620119999999
"Alès, FR",1152,4.083352,44.127204
"Ambilly, FR",3219,6.223001,46.194109
"Ambérieu-en-Bugey, FR",3803,5.359556,45.95843600000001
"Amiens, FR",63,2.295753,49.894067
"Amsterdam, NL",10494,4.9041389,52.3675734
"Andernach, DE",230,7.4086636,50.426057
"Annecy, FR",1906.1111111111109,6.129384,45.899247
"Annecy-le-Vieux, FR",670,6.141949899999999,45.9192139
"Annemasse, FR",3267.2222222222217,6.234158,46.19325300000001
"Annonay, FR",2695,4.667349,45.239403
"Antibes, FR",478,7.125102,43.58041799999999
"Aosta, IT",602.8,7.313076199999999,45.7349551
"Apricale, IT",24,7.656252899999999,43.8818776
"Arbaz, CH",2563,7.381039400000001,46.2717615
"Arbois, FR",681,5.772342,46.902851
"Arbon, CH",797,9.4268301,47.51409049999999
"Arches, FR",75,2.32773,45.307756
"Ardon, CH",4384,7.257228599999999,46.2097412
"Arisdorf, CH",12715,7.765207500000001,47.5129592
"Arni (AG), CH",23213,8.42034,47.31856
"Arona, IT",8930,-6.7553016,53.128509
"Asbach, DE",1,7.4234924,50.6641208
"Aschaffenburg, DE",770.25,9.135555400000001,49.9806625
"Asti, IT",339,8.2064257,44.90075119999999
"Attelwil, CH",10976,8.043949,47.2598028
"Audincourt, FR",918,6.8406150000000006,47.481724
"Augsburg, DE",741,10.89779,48.3705449
"Aulendorf, DE",1264,9.6377896,47.9502469
"Aulnay-sous-Bois, FR",10250,2.4970711,48.9412151
"Auvernier, CH",148,6.8769195,46.9775749
"Auxerre, FR",274,3.573781,47.798202
"Avallon, FR",284,3.907721999999999,47.48822
"Avellino, IT",657,14.7906121,40.914388
"Avignon, FR",874.5,4.805528,43.94931700000001
"Aïre, CH",257,NA,NA
"Baar, CH",4631,8.526087,47.1953729
"Backnang, DE",181,9.434181299999999,48.9471455
"Bad Bellingen, FR",10450,7.556973999999999,47.7319201
"Bad Breisig, DE",22,7.28973,50.50614969999999
"Bad Ems, DE",603,7.719239999999999,50.33406189999999
"Bad Homburg (Hessen), DE",10680,8.617754999999999,50.2284412
"Bad Homburg vor der Höhe, DE",171.5,8.617754999999999,50.2284412
"Bad Kreuznach, DE",411.75,7.873134599999999,49.8440162
"Bad Krozingen, DE",15110.333333333332,7.702876299999999,47.9183347
"Bad König, DE",837,9.0064931,49.7436186
"Bad Marienberg (Westerwald), DE",103,7.946190999999999,50.6529429
"Bad Mergentheim, DE",5067,9.7704158,49.488537
"Bad Münstereifel, DE",2397,6.7612985,50.5576854
"Bad Neuenahr-Ahrweiler, DE",9312,7.1197177,50.541815
"Bad Rappenau, DE",432,9.1020153,49.24016899999999
"Bad Schwalbach, DE",13966,8.0695976,50.1402994
"Bad Säckingen, CH",1074,7.943587699999999,47.5562231
"Bad Säckingen, DE",4200.333333333334,7.943587699999999,47.5562231
"Bad Vilbel, DE",12480,8.739480499999999,50.18233559999999
"Bad Waldsee, DE",12309.5,9.753282300000002,47.9226998
"Baden, CH",13882.444444444445,8.30809,47.47288
"Badung, ID",6245,115.1770586,-8.5819296
"Bagnols-sur-Cèze, FR",438,4.620075,44.16252
"Baldersheim, FR",627,7.378661,47.801896
"Balingen, DE",103,8.8495298,48.2748206
"Balsthal, CH",8081,7.6883283,47.3095856
"Barcelona, ES",19956.5,2.168568,41.3873974
"Bardonnex, CH",285,6.1052649,46.1503619
"Basel (Basel-Stadt, Schweiz), CH",4535.5,7.5885761,47.5595986
"Basel, CH",6748.507692307687,7.5885761,47.5595986
"Basel, FR",3079,7.5885761,47.5595986
"Battweiler, DE",645,7.463803,49.2786955
"Baulmes, CH",541,6.521738999999999,46.7895163
"Baume-les-Dames, FR",142,6.361762,47.352683
"Bavois, CH",223,6.565371799999999,46.6860182
"Beaune, FR",392,4.840004,47.02603000000001
"Beckingen, DE",864,6.7022422,49.3920816
"Begnins, CH",10703,6.2477524,46.4408426
"Belfort, FR",1640.2857142857142,6.863849,47.63967400000001
"Bellegarde-sur-Valserine, FR",2042,5.826179,46.10759900000001
"Belleville, FR",1066.5,4.745161,46.109457
"Bellikon, CH",11781,8.3440277,47.3891984
"Bellinzona, CH",567,9.0244124,46.1946216
"Belp, CH",4819,7.499006000000001,46.8914239
"Beltheim, DE",18,7.4625703,50.1064394
"Belval, FR",102,4.63404,49.7762699
"Bendorf, DE",142,7.571062799999999,50.4267625
"Benney, FR",920,6.219954,48.512621
"Benningen am Neckar, DE",3517,9.239925699999999,48.94329760000001
"Bensheim, DE",0,8.618729600000002,49.6861354
"Bergamo, IT",440.5,9.881997799999999,45.8578304
"Bergheim, DE",1621.5,6.6555022,50.9451945
"Bergisch Gladbach, DE",26118.5,7.1229789,50.98964789999999
"Berikon, CH",7346.5,8.37021,47.352
"Berlin, DE",5861,13.404954,52.52000659999999
"Berlinchen, DE",92,174.7618307,-36.8464453
"Bern, CH",4706.32231404959,7.4474468,46.9479739
"Berna, CH",9491.25,7.4474468,46.9479739
"Berne (Schweiz), CH",4232,7.4474468,46.9479739
"Berne, CH",1494.6666666666665,7.4474468,46.9479739
"Bernex, CH",3136,6.0764849,46.1771419
"Beromünster, CH",1704,8.1916446,47.2064459
"Besançon, FR",2413.9499999999994,6.024053899999999,47.237829
"Besnate, IT",5527,8.7650437,45.6983694
"Betzdorf, DE",1102,7.872672100000001,50.7870176
"Bex, CH",405,7.014266399999999,46.24998470000001
"Bexbach, DE",640.5,7.255374499999999,49.35602249999999
"Biberach an der Riß, DE",6862,9.7901525,48.0951473
"Biberach, DE",63,9.7901525,48.0951473
"Biberist, CH",291,7.5577799,47.1818339
"Bibertal, DE",1184,NA,NA
"Biebesheim am Rhein, DE",4004,8.4743923,49.7792822
"Biel, CH",3176.894736842105,7.2467909,47.1367785
"Biel/Bienne, CH",312,7.2467909,47.1367785
"Bienne, CH",4497.25,7.2467909,47.1367785
"Bietigheim-Bissingen, DE",1535.3333333333333,9.1305037,48.9471605
"Bingen am Rhein, DE",2048,7.904596000000001,49.9667396
"Binningen, CH",3335.5,7.570987799999998,47.53786969999999
"Binzgen, DE",1135,8.0480146,47.5713405
"Birmensdorf, CH",14267,8.43714,47.35367
"Birrwil, CH",6912,8.1982023,47.2887342
"Bitburg, DE",2399,6.529860299999999,49.9664145
"Blaustein, DE",2401.5,NA,NA
"Bludenz, AT",80,9.808209999999999,47.159910000000004
"Blumberg, DE",678,NA,NA
"Blénod-lès-Toul, FR",152,5.832266,48.598639
"Bolligen, CH",3217,7.497145799999998,46.97562070000001
"Bollschweil, DE",827,7.779054299999999,47.921763
"Bollwiller, FR",5000,7.262282,47.860228
"Bonaduz, CH",44,9.400014299999999,46.8117055
"Bonn, DE",2513.1578947368416,7.0982068,50.73743
"Bonndorf im Schwarzwald, DE",110,8.3372044,47.8164048
"Bonneville, FR",1892,6.409053,46.0780249
"Bonstetten, CH",590,8.4680573,47.31516
"Borgomanero, IT",2392,8.4624538,45.69894410000001
"Bornheim, DE",7225,6.9821412,50.759586
"Boswil, CH",2307,8.3128941,47.3008078
"Bottmingen, CH",2934,7.5723451,47.5233885
"Boudry, CH",1631,6.8478409,46.9542921
"Bourg-en-Bresse, FR",731,5.2255007000000004,46.20516749999999
"Bourges, FR",563,2.398782,47.081012
"Bouy-Luxembourg, FR",51,4.257381,48.378322
"Brauweiler (Rheinland-Pfalz), DE",34272,7.4986105,49.82419050000001
"Bregenz, AT",8094.75,9.74231,47.50075
"Breisach am Rhein, DE",643.5,7.5836067,48.0348382
"Bremen, DE",1476,8.8016937,53.07929619999999
"Bremgarten bei Bern, CH",31435,7.437264300000001,46.9756803
"Bremgarten, CH",15167.5,8.3397905,47.34917739999999
"Brensbach, DE",1073,8.8807075,49.7730971
"Brenzone, IT",0,10.7675388,45.7084285
"Bressey-sur-Tille, FR",1373,5.183651999999999,47.305967
"Breuberg (Hessen), DE",991,9.02339,49.8166161
"Briançon, FR",1611,6.643179,44.899416
"Brig, CH",4335,7.987820800000001,46.3158992
"Brignais, FR",4166.5,4.7525639,45.674944000000004
"Brisbane City, AU",85,153.0260341,-27.4704528
"Brislach, CH",2895,7.5427693,47.41885000000001
"Brittnau, CH",12723,7.9469694,47.2597136
"Bruchmühlen, DE",4803,8.4618697,52.20590499999999
"Bruchsal, DE",2496,8.584410799999999,49.1249712
"Brugg, CH",3637,8.2109103,47.48673549999999
"Brunnen, CH",2318.6666666666665,8.6065,46.99546
"Brusasco, IT",5402,8.0599495,45.15615700000001
"Bruxelles, BE",2975,4.3571696,50.8476424
"Brügg, CH",2393,8.2109103,47.48673549999999
"Brühl, DE",2521.6,6.8987865,50.8267554
"Brüttisellen, CH",3642,8.631239599999999,47.418886
"Buchs (ZH), CH",94,8.441022199999999,47.4584851
"Buchs, CH",5727.5,9.4708594,47.1655403
"Buggingen, DE",7522,7.6374895,47.8481234
"Buhl, FR",514,-114.7594946,42.5990714
"Bulle, CH",1088.8181818181818,NA,NA
"Bully, FR",478,NA,NA
"Burgdorf, CH",7566,7.627224300000001,47.0559357
"Bussigny, CH",2467.5,6.558615,46.5517429
"Bussigny-près-Lausanne, CH",1099,6.558615,46.5517429
"Bussnang, CH",19444,9.0830063,47.5574575
"Butzbach, DE",669,8.6688418,50.43503579999999
"Bâle, CH",9275.333333333332,7.5885761,47.5595986
"Bétheny, FR",65,4.064101000000001,49.28543699999999
"Böblingen, DE",678.5,9.0073513,48.6845486
"Bülach, CH",5288.333333333333,8.5419603,47.5160671
"Bürstadt, DE",6156,8.4617953,49.6441767
"Büsserach, CH",19909,7.539992199999999,47.391439
"Büttelborn, DE",1,8.5132019,49.9002218
"Calolziocorte, IT",1776,9.431899,45.8003717
"Calw, DE",14329,8.7425205,48.7126752
"Cannes, FR",299,7.017369,43.552847
"Carmagnola, IT",2630,7.717439799999999,44.8458882
"Carnago, IT",1856,8.841248199999999,45.7225464
"Carouge (GE), CH",3706,6.1378539,46.1829674
"Castellamonte, IT",879,7.7119076,45.3829469
"Castelletto sopra Ticino, IT",2575,8.626339699999999,45.706711
"Castrop-Rauxel, DE",6496,7.3150145,51.5632625
"Cavaglio D'agogna, IT",777,8.4832197,45.610255
"Cercier, FR",180,6.050038,46.026487
"Cernier, CH",427.5,6.900677399999999,47.0589492
"Cessy, FR",873,6.069864,46.317077
"Chagny, FR",399,4.753217999999999,46.910567
"Chalon-sur-Saône, FR",4465.166666666666,4.853947,46.780764
"Cham, CH",18567,8.4592089,47.181225
"Chambery, PH",538,5.917781,45.564601
"Chambéry, FR",3986.333333333333,5.917781,45.564601
"Chamesol, FR",74,6.834849999999999,47.34744999999999
"Chamonix-Mont-Blanc, FR",130,6.869433,45.923697
"Champagnole, FR",691,5.905724999999999,46.746091
"Champfromier, FR",14,5.816733,46.193896
"Charenton-le-Pont, FR",2579,2.4162805,48.8193107
"Charleroi, BE",128.5,4.44601,50.4096349
"Charleville-Mézières, FR",1042,4.726096,49.76208500000001
"Charnay-lès-Mâcon, FR",5200,4.8011956,46.3094444
"Charrat, CH",379,7.13284,46.12287
"Chassieu, FR",2038,4.971917899999999,45.743527
"Chaumont, FR",6636,5.1392559,48.113748
"Chavannes-des-Bois, CH",1433,6.133292600000001,46.3158782
"Chavannes-près-Renens, CH",1170.3333333333333,6.574969599999999,46.5316376
"Chavornay, CH",2705.666666666667,6.5707689,46.7088129
"Chazelles-sur-Lyon, FR",1497,4.39039,45.637154
"Chimilin, FR",573,5.600283999999999,45.57679100000001
"Chur, CH",19399,9.5319859,46.8507835
"Châlons-en-Champagne, FR",1,4.363073,48.956682
"Châteauneuf-le-Rouge, FR",3,5.5664541,43.4900809
"Châteaurenard, FR",10366,4.855684999999999,43.8820059
"Châteauroux, FR",5780,1.686779,46.811434
"Châteauroux-les-Alpes, FR",221,6.521250999999999,44.613468
"Châtel-Guyon, FR",12413,3.0639759,45.918736
"Châtel-Saint-Denis, CH",768.5,6.901089499999999,46.5269159
"Châtel-SaintDenis, CH",3088,6.901089499999999,46.5269159
"Châtelaine, CH",2412,6.1099342,46.2116722
"Chézard-Saint-Martin, CH",3050,6.9175754,47.0624261
"Ciriè, IT",55,7.6014933,45.2358319
"Clairvaux-les-Lacs, FR",303,5.751053,46.57623299999999
"Claix, FR",3328,5.672924999999999,45.1199439
"Clermont-Ferrand (Auvergne), FR",1646,3.087025,45.77722199999999
"Clermont-Ferrand, FR",875,3.087025,45.77722199999999
"Cluses, FR",843.6,6.580582,46.06039
"Cochem, DE",9556,7.1701755,50.1474123
"Cointrin, CH",789,6.109088799999999,46.2369794
"Collombey, CH",1114,6.9459483,46.2710282
"Collonges-sous-Salève, FR",1502,6.144851999999999,46.141043
"Colmar, FR",1515.3333333333335,7.358511999999999,48.0793589
"Colmars, FR",68,6.627111999999999,44.182011
"Colombier (NE), CH",1213,6.8589727,46.9668714
"Como, IT",1242,NA,NA
"Confignon, CH",1289,6.0835592,46.1740305
"Conliège, FR",12,5.599140999999999,46.6547089
"Connantray-Vaurefroy, FR",17,4.061879,48.747346
"Corbonod, FR",8189,5.821745,45.967633
"Corcelles-Cormondrèche, CH",567,6.8723478,46.98504
"Corcelles-près-Payerne, CH",1148,6.9622657,46.8309425
"Cormatin, FR",3930,4.68766,46.542723
"Corminboeuf, CH",3109,7.1058977,46.8111587
"Cornaredo, IT",3899,9.023928399999999,45.5015276
"Corseaux, CH",11831,6.8289971,46.4702528
"Corsier-sur-Vevey, CH",6476,6.8482854,46.4725243
"Cortaillod, CH",342.5,6.8467863,46.9431271
"Cossato, IT",3473,8.175544,45.5668371
"Coulommiers, FR",716,3.083497,48.813071
"Cournillens, CH",383,7.100008,46.85000400000001
"Courtelary, CH",2033,7.072954699999999,47.1783274
"Cranves-Sales, FR",1163,6.292593,46.1876419
"Crissier, CH",3203.5,6.5743458,46.55186870000001
"Croix, FR",3652,3.148719,50.67731999999999
"Cuarnens, CH",262,6.4388657,46.62476040000001
"Cuers, FR",12690,6.072199899999999,43.237875
"Cugy (VD), CH",11861,6.640292899999999,46.5851396
"Curitiba, BR",51809,-49.2699727,-25.4372382
"Dagmersellen, CH",6245,7.9893353,47.2128386
"Damas-et-Bettegney, FR",268,6.262405999999999,48.211239
"Dannstadt-Schauernheim, DE",27,8.316546299999999,49.4275139
"Darmstadt, DE",1267.125,8.6511929,49.8728253
"Daun, DE",5731,NA,NA
"Debrecen, HU",11303,21.6254485,47.5288879
"Delémont, CH",943,7.345155500000001,47.365837
"Denzlingen, DE",1916,7.8890649,48.0690429
"Derendingen, CH",11096,7.585593099999999,47.1952433
"Dieburg, DE",4439,8.8444959,49.9010547
"Dielheim, DE",7,8.7354278,49.2832655
"Dietikon, CH",5569.5,8.39977,47.4053885
"Diez, DE",10293,NA,NA
"Dijon, FR",1512.0714285714284,5.04148,47.322047
"Dillingen, DE",599,10.4940239,48.5790918
"Dillingen/Saar, DE",1016,6.726753200000001,49.3630559
"Dirmstein, DE",12442,8.2499272,49.5646683
"Ditzingen, DE",1451,9.067556399999999,48.8264662
"Divonne-les-Bains, FR",4656,6.136039999999999,46.358168
"Dole, FR",2992,5.49081,47.09534
"Dombresson, CH",1527.5,6.9549699,47.07096629999999
"Dommartin, FR",6705,4.71234,45.837556
"Dompierre-sur-Besbre, FR",2054,3.679078,46.5196759
"Donaueschingen, DE",4360,8.4979461,47.95215229999999
"Dornach, CH",1625,7.6170412,47.4790491
"Dornbirn, AT",9931,9.743789999999999,47.4124
"Dortmund, DE",1453,7.465298100000001,51.5135872
"Doucier, FR",159,5.778905,46.656335
"Douvaine, FR",484.5,6.299196999999999,46.3048689
"Dracé, FR",2081,4.7662005,46.1571994
"Drap, FR",909,7.320831,43.754365
"Dreieich, DE",1014,8.6949231,50.0294877
"Dresden, DE",0,13.7372621,51.0504088
"Droisy, FR",67,5.882727000000001,45.965199
"Druento, IT",1543,7.5765427,45.1346452
"Dubendorf, CH",5177,8.618012799999999,47.3971476
"Dudweiler, DE",1644,7.0373908,49.2782687
"Dulliken, CH",6595,7.944903,47.3492274
"Désandans, FR",1030,6.677517,47.53507399999999
"Döhlau, DE",3920,11.9445068,50.2809442
"Düdingen, CH",382,7.191017899999999,46.8464198
"Düren, DE",561.6666666666666,6.4793683,50.8037183
"Dürmentingen, DE",123,9.5339323,48.11384229999999
"Dürrenäsch, CH",7619,8.156860500000002,47.3214469
"Düsseldorf, DE",1829,6.7734556,51.2277411
"Eberbach, DE",508,8.9898436,49.4694813
"Echallens, CH",1327.3333333333333,6.634450800000001,46.6410996
"Echandens, CH",1335,6.5418995,46.5352022
"Ecublens (VD), CH",1093,6.561525199999999,46.5296363
"Ecublens, CH",5627,6.561525199999999,46.5296363
"Effretikon, CH",14147,8.6903376,47.4272742
"Egeln, DE",3930,11.4281059,51.9411082
"Egg, CH",1565,8.6903921,47.2995246
"Eggenwil, CH",144,8.3401721,47.3702231
"Eggingen, DE",7662,8.393098,47.6979742
"Egliswil, CH",777,8.187972199999999,47.3492167
"Ehingen (Donau), DE",14885,9.726504199999999,48.2828352
"Ehrendingen, CH",13420,8.342054,47.4972188
"Eilendorf, DE",3725,6.1796883,50.778803
"Eimeldingen, DE",1552,7.595158,47.6306222
"Einsiedeln, CH",1626,8.7451537,47.127353
"Eisenhüttenstadt, DE",19091,14.6419022,52.1436615
"Eitorf, DE",564,7.451173999999999,50.7693433
"Ekaterinburg, RU",6950,60.64540859999999,56.8430993
"Elchenreute, DE",540,9.698395699999999,47.9539766
"Elsdorf, DE",1859,6.5635008,50.9392493
"Emberménil, FR",107,6.696174,48.63001
"Embrach, CH",3652,8.5938067,47.509856
"Embrun, FR",6676,6.495864999999999,44.564164
"Emmen, CH",10213,6.891697,52.7861939
"Emmenbrücke (Lucerna, Schweiz), CH",43796,8.275637,47.07723379999999
"Emmenbrücke, CH",13769.5,8.275637,47.07723379999999
"Emmendingen, DE",2584.3,7.8514309,48.1216285
"Endingen am Kaiserstuhl, DE",1744,7.700137600000001,48.142632
"Epalinges, CH",261,6.674199,46.54885729999999
"Ependes (FR), CH",6386,7.145980300000001,46.7537683
"Ependes, CH",295,7.145980300000001,46.7537683
"Epinal, FR",832,6.449403,48.172402
"Eppingen, DE",10474,8.9092339,49.1379832
"Erba, IT",325,9.209105,45.8138242
"Erbach, DE",1293,8.9961444,49.6558833
"Erftstadt, DE",4589,6.7774607,50.7948075
"Erkelenz, DE",2943,6.315906999999999,51.0784539
"Erkheim, DE",1805,10.336242,48.037988
"Erlangen, DE",4366,11.0119611,49.5896744
"Erlenbach im Simmental, CH",925,7.552995999999999,46.6605558
"Erlinsbach, CH",25847.5,8.0111999,47.4067819
"Erpel, DE",703,7.236866300000001,50.5862326
"Erstfeld, CH",5309.5,8.6483355,46.82288339999999
"Eschborn, DE",484,8.561455500000001,50.1467469
"Eschenbach, DE",9855,8.9220805,47.2406093
"Eschweiler, DE",756.2,6.263075,50.8107322
"Essingen, DE",781,10.0284452,48.8100763
"Esslingen am Neckar, DE",2300.125,9.3144229,48.742178
"Esslingen, CH",1067,9.3144229,48.742178
"Estavayer-le-Lac, CH",2674,6.845060800000001,46.8496401
"Ettenheim, DE",2338.75,7.813807199999999,48.2565786
"Ettiswil, CH",5851,8.019181699999999,47.1501373
"Euskirchen, DE",12,6.7899945,50.6574392
"Eutingen im Gäu, DE",17289,8.748092399999999,48.4778509
"Evian-les-Bains, FR",2167,6.590948999999999,46.401488
"Eymatt, CH",8414,7.383489999999999,46.96246
"Falera, CH",5348,9.2304912,46.8012412
"Fayence, FR",4820,6.694103000000001,43.624076
"Fellbach, DE",2263,9.2702944,48.8215653
"Ferney-Voltaire, FR",71,6.108669,46.25763200000001
"Fillinges, FR",25862,6.342989999999999,46.15946599999999
"Fischbach bei Dahn, DE",5104,7.7113215,49.0883539
"Flavigny-sur-Moselle, FR",1569,6.188515000000001,48.56863300000001
"Flawil, CH",17,9.1870297,47.41337069999999
"Flein, DE",524,9.211708300000002,49.10214819999999
"Flörsheim am Main, DE",683,8.4217125,50.01239959999999
"Fontaine-lès-Luxeuil, FR",354,6.334178,47.856758
"Fontaines, CH",5107,6.9008183,47.0426174
"Fontaneto D'agogna, IT",486,8.4837703,45.6402711
"Forbach, DE",3075,6.895295000000001,49.186515
"Fos-sur-Mer, FR",399,4.945711,43.43788199999999
"Founex, CH",8834,6.192647,46.3328701
"Francheval, FR",84,5.0488799,49.701109
"Francheville, FR",476,4.7438242,45.7297871
"Frankenthal (Pfalz), DE",812,8.3560768,49.53770720000001
"Frankfurt am Main (Hessen), DE",7360.5,8.6821267,50.1109221
"Frankfurt am Main, DE",2775.61176470588,8.6821267,50.1109221
"Fraubrunnen, CH",8295,7.526873900000001,47.0862376
"Frauenfeld, CH",10839.5,8.8987541,47.5535997
"Frechen, DE",2506.5,6.815995699999999,50.9122488
"Freiamt, DE",5680,7.8855998,48.1793691
"Freiberg am Neckar, DE",1446,9.1992433,48.9334303
"Freiburg im Breisgau (Baden-Württemberg), DE",10165,7.842104299999999,47.9990077
"Freiburg im Breisgau, DE",4830.630769230766,7.842104299999999,47.9990077
"Freiburg, CH",832.5,7.161971899999999,46.8064773
"Freiburg, DE",1609,7.842104299999999,47.9990077
"Freudenstadt, DE",366,8.4179988,48.4644796
"Fribourg, CH",4759.346153846152,7.161971899999999,46.8064773
"Frick, CH",673,-73.9673861,40.7710857
"Friedberg (Hessen), DE",36,8.7510993,50.3308526
"Friedrichshafen, DE",897.3333333333334,9.4649538,47.65673289999999
"Friedrichsthal, DE",683,7.0946606,49.32702
"Froideconche, FR",4561,6.4155739999999994,47.8195229
"Froideville, CH",1015.6666666666666,6.6822073,46.601503
"Froville, FR",350,6.355754,48.46987
"Fully, CH",1603,NA,NA
"Furtwangen im Schwarzwald, DE",886,8.2014192,48.0501442
"Fécamp, FR",2190,0.380774,49.755601
"Füllinsdorf, CH",4416,7.7298829,47.5055922
"Füssen, DE",1107,10.7004328,47.569648
"Gaillard, FR",439.3333333333333,6.208959,46.18468499999999
"Galmiz, CH",3501,7.1578548,46.9489963
"Gampelen, CH",1241,7.057894699999999,47.014664
"Gamprin, LI",13923,9.5025195,47.213249
"Gangelt, DE",15,5.997431,50.9927163
"Gap, FR",837.5,NA,NA
"Gardanne, FR",976,5.4717363,43.4525982
"Geilenkirchen, DE",398.5,6.117458399999999,50.967168
"Genas, FR",1618,5.001291,45.732041
"Genebra, CH",6566,6.1431577,46.2043907
"Geneva, CH",3512.5,6.1431577,46.2043907
"Genova, IT",426.5,8.9462564,44.4056493
"Genève, CH",2602.541666666668,6.1431577,46.2043907
"Gersau, CH",505,8.525355200000002,46.9918509
"Gerzat, FR",502,3.143508,45.8243889
"Ghemme, IT",619,8.4228612,45.5958705
"Gießen, DE",948,8.678403099999999,50.5840512
"Gignac-la-Nerthe, FR",622,5.233463,43.390916
"Ginebra, CH",579,6.1431577,46.2043907
"Ginevra, CH",475,6.1431577,46.2043907
"Ginsheim-Gustavsburg, DE",1767,8.3220536,49.9930544
"Giornico, CH",2337,8.8772098,46.4019229
"Gland, CH",370.5,6.2698809,46.4203001
"Glattpark, CH",7943,8.56151,47.42357
"Glis, CH",637,NA,NA
"Glovelier, CH",736,7.204715600000001,47.3345052
"Gozée, BE",324,4.351614,50.33345749999999
"Graal-Müritz, DE",1916,12.2461781,54.2495658
"Grabs, SC",14526,-81.1637245,33.836081
"Grafenhausen, DE",241,8.2552073,47.7757006
"Grancy, CH",1080.6666666666667,6.4642847,46.5920275
"Grand-Lancy, CH",292,6.114454599999999,46.1885168
"Grandfresnoy, FR",584,2.653483,49.371797
"Grandlup-et-Fay, FR",24,3.737574,49.657082
"Granges-près-Marnand, CH",678,6.88765,46.76336
"Grenchen, CH",7040.6,7.3958907,47.1922876
"Grenoble (Rhône-Alpes), FR",8160.5,5.724524,45.188529
"Grenoble, FR",3719.7,5.724524,45.188529
"Grenzach-Wyhlen, CH",2320,7.658088100000001,47.5523554
"Grenzach-Wyhlen, DE",3555,7.658088100000001,47.5523554
"Griesheim, DE",58,8.567644099999999,49.86142599999999
"Grindelwald, CH",5621,8.0413962,46.624164
"Grißheim, Baden-Wurttemberg, Germany, DE",1541,7.589991899999999,47.8730115
"Grossaffoltern, CH",305,7.360799999999998,47.06623
"Groß-Gerau, DE",605,8.4847038,49.9203655
"Groß-Zimmern, DE",1149,8.8264248,49.8749692
"Grésy-sur-Aix, FR",488,5.932794899999999,45.722579
"Grötzingen, DE",1552,8.4988087,49.02698059999999
"Gstaad, CH",17998.5,7.2865728,46.4717588
"Guebwiller, FR",1898,7.209336,47.911586
"Gundelfingen, DE",12946,7.866946599999999,48.0424069
"Gurbrü, CH",851,7.2139233,46.96455479999999
"Gurtweil, DE",2899.5,8.2465409,47.6440289
"Görwihl, DE",5663,8.0756351,47.6420482
"Gümligen, CH",4807,7.498472799999999,46.9350521
"Günzburg, DE",6,10.2775127,48.45284119999999
"Hagen, DE",1136,7.4632841,51.3670777
"Haguenau, FR",2046,7.791250000000001,48.813288
"Hahnstätten, DE",605,8.066673999999999,50.3035796
"Hainburg, DE",2297,8.9379086,50.0763954
"Haltingen, DE",3230,7.6116907,47.6138991
"Hamburg, DE",7222,9.987170299999999,53.5488282
"Hanau, DE",2111,8.9283105,50.1264123
"Hannover, DE",461,9.732010400000002,52.3758916
"Hasle bei Burgdorf, CH",9626,7.6452,47.015867
"Hasle-Rüegsau, CH",6068,7.654109999999999,47.01686
"Hattersheim am Main, DE",307,8.487226699999999,50.0695728
"Hausen, CH",1747,8.2115423,47.46213040000001
"Hauterive (FR), CH",969,7.096121699999999,46.7610132
"Hautevelle, FR",236,6.284999,47.84213399999999
"Haßloch, DE",11354.5,8.2578059,49.3610149
"Hedingen, CH",2631.5,8.4482542,47.2977669
"Heerbrugg, CH",8805,9.6256262,47.411037
"Heidelberg (Baden-Württemberg), DE",1335,8.6724335,49.3987524
"Heidelberg, DE",1750,8.6724335,49.3987524
"Heidenheim an der Brenz, DE",327.25,10.1506915,48.6785503
"Heidenrod, DE",513,7.9962279,50.21274409999999
"Heidesheim am Rhein, DE",2731,8.1137217,49.9950324
"Heilbronn, DE",1957.8888888888891,9.210879,49.1426929
"Heimsheim, DE",53,8.863622699999999,48.8080814
"Heitersheim, DE",2090,7.6575712,47.87331409999999
"Heldswil, CH",947,8.4117709,47.4239976
"Hemmingen, DE",3844,9.7299802,52.32233129999999
"Hemsbach, DE",1113,8.646049999999999,49.5919707
"Henau, CH",4914,9.142239,47.4453738
"Hennef (Sieg), DE",771,7.2801239,50.7767469
"Herbolzheim, DE",3884,7.769690900000001,48.2207134
"Herbrechtingen, DE",93,10.1731094,48.6268982
"Hergiswil bei Willisau, CH",1537,7.957594299999999,47.0853068
"Hergiswil, CH",14564.333333333334,8.3083735,46.9905821
"Herisau, CH",6181,9.2798472,47.3857009
"Herrenberg, DE",190,8.8671577,48.5950369
"Heusenstamm, DE",3915,8.7999301,50.0554864
"Heuweiler, DE",5954,7.904252199999999,48.0526221
"Hilbringen, DE",3111,6.616098999999999,49.4410482
"Hindelbank, CH",15230,7.540113700000001,47.0454556
"Hirschthal, CH",18475,8.0527123,47.3188006
"Hochdorf, CH",3573,8.292067099999999,47.1665813
"Hochdorf, DE",689.5,9.4667477,48.6935836
"Hochheim am Main, DE",504,8.3558664,50.0147576
"Hockenheim, DE",136,8.5498581,49.31955199999999
"Hohenems, AT",7709.4,9.6867191,47.3608313
"Hohentengen am Hochrhein, DE",7979,8.4362841,47.570611
"Holzgerlingen, DE",527,9.0116484,48.6392131
"Hombourg, FR",1375,7.504542,47.75976900000001
"Homburg, DE",565.75,NA,NA
"Homoljska Cuprija, BA",1490,21.3780076,43.9263445
"Horgen, CH",1052.5,8.596363,47.260742
"Hunzenschwil, CH",1997.5,8.1226224,47.3864912
"Huttwil, CH",20966,7.8514819,47.1133544
"Hyères, FR",96,6.128639,43.120541
"Härkingen, CH",15389,7.8189943,47.3073359
"Héricourt, FR",383,6.758915999999999,47.57524
"Höchenschwand, DE",6030,8.1673324,47.73338620000001
"Höhr-Grenzhausen, DE",2,7.6693082,50.4347311
"Höri, CH",60,8.510459599999999,47.5082689
"Hülben, DE",75,9.406390799999999,48.5192254
"Hünenberg See, CH",23160,8.4478162,47.1749082
"Hürth, DE",803,6.8881425,50.8805932
"Idar-Oberstein, DE",18810,7.3071512,49.71452799999999
"Idstein, DE",1064,8.265894,50.2171726
"Illertissen, DE",27,10.1012701,48.2253313
"Illnau-Effretikon, CH",5646,8.7259084,47.4086124
"Ilshofen, DE",14082,9.9189951,49.16831999999999
"Ingelheim am Rhein, DE",447,8.0560682,49.9764195
"Innsbruck, AT",2188,11.4041024,47.2692124
"Ins, CH",2202,-2.611882,57.34140499999999
"Interlaken, CH",5673.428571428571,7.863204899999999,46.6863481
"Inwil bei Baar, CH",137,8.5327869,47.1825636
"Isny im Allgäu, DE",308.6666666666667,10.0419676,47.6949747
"Ittigen, CH",7918.666666666667,7.4818936,46.9761433
"Ivrea, IT",1530,7.8800589,45.4672764
"Jainvillotte, FR",226,5.697234,48.257635
"Jarny, FR",705,5.885849899999999,49.151784
"Jegenstorf, CH",6685,7.5069284,47.0500303
"Jenaz, CH",8060,9.719446699999999,46.928685
"Jonquières-Saint-Vincent, FR",931,4.5633169,43.827226
"Jouques, FR",2079,5.63955,43.636647
"Jülich, DE",816,6.3639119,50.9224226
"Kaiseraugst, CH",370,7.728962399999999,47.5380277
"Kaiserslautern, DE",1245.75,7.7491265,49.4400657
"Kaisten, CH",1423,8.04439,47.54033
"Kaltbrunn, CH",1931,9.0250732,47.2133136
"Kandern, DE",5368.333333333333,7.662315800000001,47.7147652
"Karlsruhe, DE",2272.758620689656,8.4036527,49.0068901
"Kastanienbaum, CH",6411,8.339921,47.00770420000001
"Kaufbeuren, DE",639,10.625966,47.8830175
"Kaysersberg, FR",3263,7.264023,48.13889
"Kelkheim, DE",1,8.45121,50.13489000000001
"Kelsterbach, DE",3025,8.5297786,50.0597078
"Keltern, DE",289,8.6023638,48.8945388
"Kempten (Allgäu), DE",3064,10.3157835,47.7285699
"Kerkrade, NL",1259,6.0657726,50.8678177
"Kernen im Remstal, DE",299,9.3182543,48.81401899999999
"Kerns, CH",6358,8.2763586,46.9022606
"Kerpen, DE",1896,6.6883728,50.8747592
"Kerzers, CH",5172,7.1954365,46.97488999999999
"Kingston, JM",21224,-76.8099041,18.0178743
"Kirchberg, CH",3594,9.0401819,47.41135329999999
"Kirchheim unter Teck, DE",264,9.4519635,48.6471033
"Kirn, DE",85,NA,NA
"Klaus-Weiler, AT",50,NA,NA
"Klettgau, CH",9664,8.425006999999999,47.6553112
"Klettgau, DE",8126,8.425006999999999,47.6553112
"Klingnau, CH",4185,8.2489572,47.5810229
"Kloten, CH",3102,8.5821648,47.4495116
"Knittlingen, DE",585,8.7582988,49.0240107
"Knutange, FR",1,6.040735,49.34023800000001
"Koblenz, CH",4161,8.23842,47.60954
"Koblenz, DE",1942.076923076923,7.5889959,50.3569429
"Kollbrunn, CH",939,8.7747,47.4569
"Kolonia, DE",298,158.2083333,6.9641667
"Konolfingen, CH",8257,7.620826299999999,46.8794597
"Konstanz, DE",647,9.1736741,47.6779808
"Koppigen, CH",1433.5,7.6017869,47.133724
"Kornwestheim, DE",238,9.1857957,48.86510879999999
"Kraichtal, DE",550,8.7407191,49.125859
"Krauchthal, CH",2383,7.5669015,47.0101968
"Kreuzlingen, CH",505,9.170785799999999,47.6447397
"Kriens, CH",2483.4,8.277255199999999,47.0341978
"Kusel, DE",18,7.406452799999999,49.5383747
"Kyburg, CH",5830,8.744069,47.45750169999999
"Köln (Nordrhein-Westfalen), DE",16408,6.9602786,50.937531
"Köln, DE",4736.325203252039,6.9602786,50.937531
"Königstein im Taunus, DE",1258,8.47191,50.17874
"Königswinter, DE",669,7.1911458,50.6772453
"Köniz, CH",4417.5,7.416720599999999,46.925634
"Küssnacht am Rigi, CH",8147.5,8.4431621,47.08432370000001
"Küttigen, CH",1546,8.0472144,47.4175999
"L'Albenc, FR",1706,5.439711,45.225036
"L'Arbresle, FR",331,4.614934,45.834999
"La Baume, FR",2237,6.612791,46.282368
"La Chapelle-de-la-Tour, FR",1295,5.466639,45.5847679
"La Chaux-de-Fonds, CH",1813.75,6.832783800000001,47.1034892
"La Ciotat, FR",800,5.605155,43.17365299999999
"La Clusaz, FR",315,6.423353,45.904427
"La Côte-Saint-André, FR",441,5.260022,45.393794
"La Côte-aux-Fées, CH",17517,6.490495399999999,46.8675625
"La Ferté-sous-Jouarre, FR",716,3.130059,48.95050699999999
"La Garde, FR",1382.5,6.017199,43.128777
"La Loggia, IT",1659,NA,NA
"La Léchère, FR",300,6.4159133,45.4869321
"La Praz, CH",233,6.4271565,46.6674312
"La Roche-sur-Foron, FR",1082.5,6.312039,46.067072
"La Rochelle, FR",2246,-1.151139,46.160329
"La Sarraz, CH",2767.5,6.5126843,46.6582337
"La Tour-de-Peilz, CH",4938,6.8612781,46.4533165
"La Tour-de-Trême, CH",14,7.06667,46.60833299999999
"La Tourette, FR",37,4.083952,45.414696
"La Valette-du-Var, FR",72,5.987584399999999,43.13824
"La Verpillière, FR",5219,5.143259,45.636822
"Labergement-Sainte-Marie, FR",102,6.282316,46.774381
"Lachen, CH",8009,8.8532083,47.1934652
"Lage, DE",2437,NA,NA
"Lagnieu, FR",4413,5.3486269,45.903996
"Lahr, DE",1797,7.8781487,48.33915
"Lahr/Schwarzwald, DE",5929.09090909091,7.8781487,48.33915
"Laichingen, DE",173,9.690156199999999,48.4911417
"Lajoux, FR",4130,5.972055,46.37446
"Lampertheim, DE",607,8.466599,49.59972670000001
"Lancy, CH",5953.5,6.114454599999999,46.1885168
"Landau in der Pfalz, DE",1001.4,8.1185622,49.19888599999999
"Landiswil, CH",1049,7.68004,46.9582
"Landquart Fabriken, CH",2673,9.5657933,46.9563994
"Landquart, CH",7344,9.5589468,46.9629322
"Langen (Hessen), DE",1307,8.6634007,49.99146630000001
"Langenau, DE",18,10.1224468,48.49727619999999
"Langendorf, CH",876,7.514949000000001,47.2216911
"Langenthal, CH",9265.4,7.790562299999999,47.2120786
"Langerwehe, DE",709,6.362345299999999,50.81580109999999
"Langnau im Emmental, CH",9602.5,7.7906824,46.9378622
"Langwieden, DE",443,7.4984366,49.3752534
"Las Bahamas, AR",6563,-77.39627999999999,25.03428
"Lauchheim, DE",972,10.2432861,48.8713499
"Lauchringen, DE",3563,8.312749799999999,47.6293259
"Laufenburg (Baden), DE",3872.5,8.082053,47.5732675
"Lauffen am Neckar, DE",457,9.1460062,49.0720251
"Laupen, CH",11007,7.238690099999999,46.9035653
"Laupersdorf, CH",1296,7.652041499999999,47.31186150000001
"Laupheim, DE",1477,9.8829174,48.2303503
"Lausana, CH",937,6.6322734,46.5196535
"Lausanne, CH",2758.2467532467517,6.6322734,46.5196535
"Lausanne, Switzerland, CH",157,6.6322734,46.5196535
"Lavans-lès-Saint-Claude, FR",1165,5.785806,46.384847
"Lax, CH",828,-118.4091036,33.9437902
"Laxou, FR",19,6.152525,48.684256
"Le Chable, FR",11405,7.2104799999999996,46.08014
"Le Grand-Saconnex, CH",760,6.1231633,46.2331904
"Le Landeron, CH",3696,7.0730626,47.0581255
"Le Lignon, CH",531,6.0959812,46.2040741
"Le Mont-sur-Lausanne, CH",4593.5,6.6339915,46.55331229999999
"Le Pontet, FR",1062,4.863830999999999,43.9591489
"Le Péage-de-Roussillon, FR",4913,4.796849000000001,45.371339
"Lebach, DE",23,6.9045054,49.4039607
"Lecce, IT",17525,18.1750161,40.3515155
"Lengnau, CH",9654.5,7.3692807,47.18076
"Lenk im Simmental, CH",5101,7.4429104,46.4571943
"Lens-Lestang, FR",543,5.040966,45.29141500000001
"Lentilly, FR",9112,4.662736,45.818962
"Lenzburg, CH",6895.4,8.172154500000001,47.3904443
"Les Avanchets, CH",3500,6.108207999999999,46.221991
"Les Croisettes, CH",353,NA,NA
"Les Geneveys-sur-Coffrane, CH",12495,NA,NA
"Les Genevez, CH",1148,7.1297166,47.25664099999999
"Les Haies, FR",3413,4.748283,45.503912
"Les Masses, CH",194,7.396191200000001,46.1814123
"Les Rousses, FR",279,6.061806,46.48434
"Les Villards-sur-Thônes, FR",237,6.365278,45.907333
"Leutkirch im Allgäu, DE",494,10.0213851,47.826741
"Liestal, CH",2814.125,7.7334272,47.4866143
"Limburg a.d. Lahn, DE",1270,8.0795783,50.3986005
"Limburg an der Lahn, DE",3188,8.0795783,50.3986005
"Limburg, DE",1085.3333333333333,6.0608726,51.4427238
"Limburgerhof, DE",2525,8.3900307,49.4207609
"Lindenberg im Allgäu, DE",272,9.8879237,47.60339159999999
"Littau, CH",363,8.264809399999999,47.0507712
"Liège, BE",3055.5,5.569749799999999,50.63295859999999
"Locarno, CH",1624.75,8.7942643,46.16699879999999
"Lohmar, DE",1044,7.212664900000001,50.8378015
"Lonay, CH",2675,6.5205487,46.52664679999999
"London, GB",1980,-0.1275862,51.5072178
"Longirod, CH",1889,6.2585349,46.4951923
"Longvic, FR",2706,5.061109999999999,47.285177
"Lons-le-Saunier, FR",6360,5.550796,46.671361
"Lonsee, DE",6879,9.9226157,48.5405915
"Lorch, DE",501,NA,NA
"Lottstetten, DE",1540,8.573640600000001,47.6293933
"Louhans, FR",2560,5.223370999999999,46.628291
"Loyettes, FR",981,5.203387000000001,45.7741339
"Ludwigsburg, DE",1135.8333333333333,9.1942834,48.8891149
"Ludwigshafen am Rhein, DE",4745.111111111111,8.4447451,49.4774018
"Lugano, CH",2813,8.951051999999999,46.0036778
"Luino, IT",1744,8.7464,46.00180220000001
"Lunéville, FR",584,6.492338999999999,48.592237
"Lusigliè, IT",2508,7.765409999999999,45.31832139999999
"Lustenau, AT",213,9.6594464,47.42084260000001
"Luthern, CH",1683,7.915992399999999,47.0591501
"Luttingen, CH",9673,6.4603837,51.6741772
"Luxembourg, LU",2506,6.129582999999999,49.815273
"Luzern (Schweiz), CH",6782,8.3093072,47.05016819999999
"Luzern, CH",4273.717391304346,8.3093072,47.05016819999999
"Lyon, FR",3498.6750000000006,4.835659,45.764043
"Lyon, France, FR",917.5,4.835659,45.764043
"Lyon-Saint-Exupéry aéroport, FR",495,5.0866559,45.720348
"Lyss, CH",3367.6,7.3077022,47.0746504
"Lyssach, CH",6010,7.581923400000001,47.0655239
"Löffingen, DE",1766,8.3436574,47.881145
"Lörrach (Baden-Württemberg), DE",11965,7.6691015,47.6167921
"Lörrach (Baden-Württemberg, Germany), DE",47000,7.6691015,47.6167921
"Lörrach, CH",2551,7.6691015,47.6167921
"Lörrach, DE",5186.882352941177,7.6691015,47.6167921
"Lützelflüh-Goldbach, CH",2237,7.68327,47.00372
"Madrid, ES",7584,-3.7037902,40.4167754
"Mainaschaff, DE",66,9.0805945,49.9817853
"Mainz (Rheinland-Pfalz), DE",1770,8.2472526,49.9928617
"Mainz, DE",1495.4347826086955,8.2472526,49.9928617
"Mainz-Kastel, DE",236,8.2806368,50.0192814
"Malcesine, IT",42,10.8100928,45.7642335
"Malsch, DE",9,8.3252253,48.8844965
"Malters, CH",10585.5,8.183899199999999,47.0369701
"Mandray, FR",296,6.996081999999999,48.21651199999999
"Mannheim, DE",4321.36842105263,8.466039499999999,49.4874592
"Marbach, CH",33018,9.568968,47.392076
"March, DE",3042,NA,NA
"Marignane, FR",5,5.218332,43.4212739
"Marignier, FR",401,6.500845,46.090822
"Marin, FR",1593,103.8409056,1.326864
"Markdorf, DE",19,9.3925019,47.7193839
"Marktheidenfeld, DE",12199,9.608814599999999,49.8454938
"Marly, CH",727,NA,NA
"Marsannay-la-Côte, FR",2642,4.988667,47.270302
"Marseille, FR",4001.692307692307,5.36978,43.296482
"Marthod, FR",4274,6.4043,45.72631
"Martigny, CH",1453,7.075533399999999,46.1049798
"Massenbachhausen, DE",835,9.046536399999999,49.17573180000001
"Massongex, CH",200,6.9879867,46.2427101
"Mathay, FR",2817,6.781561,47.439319
"Mauguio, FR",59,4.010165,43.6154409
"Maulburg, DE",2502,7.7771817,47.6437738
"Maxdorf, DE",1215,8.288242200000001,49.483025
"Mayen, DE",1,7.2272626,50.3279651
"Maîche, FR",1443,6.801435,47.252277
"Meckenheim, DE",16415,7.0319507,50.6258878
"Meggen, CH",1934.3333333333333,8.372415799999999,47.0458287
"Megève, FR",136,6.61775,45.856876
"Meierskappel, CH",2366,8.4432688,47.1244436
"Meiringen, CH",6581,8.1909081,46.7251614
"Meisterschwanden, CH",562,8.229098,47.294895
"Meißenheim, DE",1108,7.775925,48.4082717
"Mellingen, CH",11877.25,8.2727454,47.4179544
"Melun, FR",867,2.6554,48.542105
"Memmingen, DE",998.75,10.1801883,47.9837999
"Mennecy, FR",4586,2.434436,48.566784
"Menziken, CH",436,8.1875302,47.2403152
"Mercury, FR",3413,NA,NA
"Merdingen, DE",4261,7.6886428,48.01887
"Merenschwand, CH",6029.5,8.374920699999999,47.2594048
"Merzhausen, DE",3263,7.827997799999999,47.9679165
"Metz, FR",564,6.175715599999999,49.1193089
"Metzingen, DE",165,9.286406099999999,48.5398997
"Meximieux, FR",1764.5,5.1949736,45.9071984
"Meyrin, CH",1309,6.070988,46.2283204
"Meythet, FR",426,6.09208,45.915603
"Mezzomerico, IT",367,8.6038251,45.620827
"Miami, US",4442,-80.1917902,25.7616798
"Michelbach an der Bilz, DE",52,9.764223399999999,49.0693651
"Michelstadt, DE",1177,9.0041618,49.6799613
"Mies, CH",1638,6.1695935,46.3033989
"Milano, IT",3885.29411764706,9.189982,45.464203500000004
"Miltenberg, DE",10861,9.2559213,49.7019294
"Mindelheim, DE",676,10.4948841,48.0461744
"Mionnay, FR",1345,4.9311273,45.8950165
"Mions, FR",892,4.9532038,45.6629628
"Mirecourt, FR",1132.5,6.133863,48.302176
"Misérieux, FR",270,4.811124,45.9739549
"Moirans-en-Montagne, FR",6836,5.723853999999999,46.4308989
"Mollis, CH",523,9.0754485,47.0940067
"Moncalieri, IT",1071,7.6802877999999994,44.9983525
"Mont-Dore, FR",1002,2.809278,45.574983
"Mont-Saint-Martin, FR",813,5.78719,49.546625
"Montabaur, DE",263,7.825795299999999,50.4358385
"Montagny-près-Yverdon, CH",1345.5,6.6120529,46.79178839999999
"Montana, CH",297,-110.3625658,46.8796822
"Montchanin, FR",1745,4.469799,46.748342
"Montereau-Fault-Yonne, FR",4934,2.956193,48.38473399999999
"Monthey, CH",1111.2727272727275,6.9469598,46.2521873
"Montmorot, FR",2756,5.5290229,46.677317
"Montmélian, FR",1161.5,6.054526999999999,45.501121
"Montpellier, FR",3358.571428571429,3.876716,43.610769
"Montreux, CH",1511.875,6.9106799,46.4312213
"Montrond, FR",4348,4.231436,45.64441799999999
"Montréal, CA",22187,-73.56739189999999,45.5018869
"Montréal-la-Cluse, FR",754,5.570780999999999,46.1853369
"Montélimar, FR",1527.5,4.749496,44.556944
"Moosseedorf, CH",675,7.484578399999999,47.0145991
"Morancé, FR",298,4.700402,45.897969
"Moretta, IT",203,NA,NA
"Morez, FR",1136,6.0223705,46.5239422
"Morges, CH",3589.5,6.496130099999999,46.5088127
"Morteau, FR",1728,6.604106,47.05698
"Mosbach, DE",535.5,9.1293829,49.34891529999999
"Moscow, RU",337,37.6173,55.755826
"Moudon, CH",477,6.7975224,46.6698891
"Moulinet, FR",10,7.412716000000001,43.940512
"Moulins-lès-Metz, FR",1232,6.1104588,49.1027742
"Mourmelon-le-Grand, FR",421,4.365273999999999,49.140298
"Moûtiers, FR",2817,6.529926000000001,45.484615
"Mudenbach, DE",528,7.7344255,50.667485
"Mulfingen, DE",56,9.802786,49.34082129999999
"Mulhouse, FR",2151.5,7.335888,47.750839
"Murg, DE",10601,NA,NA
"Muri bei Bern, CH",2317,7.498472799999999,46.9350521
"Muri, CH",345,8.341556599999999,47.2735792
"Murten, CH",428,7.120184,46.92922110000001
"Muttenz, CH",475,7.6476369,47.5279292
"Mutterstadt, DE",1295.5,8.355269999999999,49.44197
"Mâcon, FR",5187.4,4.828730999999999,46.3068839
"Männedorf, CH",3861,8.6946733,47.2574625
"Märstetten, CH",10296,9.0661021,47.592313
"Mömlingen, DE",267,9.0864324,49.85456569999999
"Mörel, CH",216,NA,NA
"Mörfelden-Walldorf, DE",2583,8.561487,49.980722
"Mühlacker, DE",9,8.8524245,48.948938
"Mühlethurnen, CH",929.5,7.507532299999999,46.8133458
"Mühlhausen-Ehingen, DE",3441,8.802497899999999,47.8172726
"Mülchi, CH",251,7.477258200000001,47.10096799999999
"Müllheim, CH",3197,9.0019686,47.6020263
"Müllheim, DE",11914.5,7.618035300000001,47.8091623
"München (Bayern), DE",16339,11.5819806,48.1351253
"München, DE",4873.6,11.5819806,48.1351253
"Münchenbuchsee, CH",1240,7.450367,47.021621
"Münchenstein, CH",930,7.6150661,47.5226485
"Münsingen, CH",3483.5,7.5627528,46.8746813
"Münster, DE",1602,7.6261347,51.9606649
"Münster-Sarmsheim, DE",1370,7.8942758,49.9433631
"Müntschemier, CH",9745,7.146078999999999,46.9954572
"NA, AT",205,NA,NA
"NA, BR",1043,NA,NA
"NA, CA",11292,NA,NA
"NA, CH",1976.2169811320734,NA,NA
"NA, DE",823.3615384615375,NA,NA
"NA, ES",296,NA,NA
"NA, FR",649.3243243243244,NA,NA
"NA, IT",2004.2857142857144,NA,NA
"NA, RO",378,NA,NA
"Nancy, FR",1904.3333333333335,6.184417,48.692054
"Napoli, IT",2274,14.26812,40.8517983
"Naters, CH",503.5,7.9916569,46.3239282
"Naturns, IT",152,11.0041852,46.6499822
"Nauort, DE",1059,7.6257074,50.4657305
"Neckartenzlingen, DE",3034,9.243811100000002,48.5888293
"Nendaz, CH",406,7.2942353,46.1834441
"Neresheim, DE",222,10.3281944,48.75613329999999
"Neu-Anspach, DE",768,8.498942099999999,50.2961543
"Neu-Ulm, DE",8558.25,10.00286,48.38916889999999
"Neuchâtel, CH",2455.8888888888887,6.9292732,46.9899874
"Neuenburg am Rhein, DE",1076,7.559168700000001,47.8140501
"Neuendorf, CH",2011,7.796337799999999,47.2982329
"Neuenhof, CH",2001,8.3274948,47.4494044
"Neuenkirch, CH",508,8.2027053,47.1008169
"Neuilly-sur-Seine, FR",444,2.26851,48.884831
"Neukirch, DE",803,9.7035594,47.6584035
"Neumünchenstein, CH",18893,7.6034314,47.5160461
"Neunkirchen, DE",15,7.1780408,49.348932
"Neuried, DE",616,11.4657458,48.0931383
"Neustadt an der Weinstraße, DE",1980,8.1486886,49.3501864
"Neuville-les-Dames, FR",140,5.004772,46.16231
"Neuweiler, DE",1591,8.5968982,48.6576671
"Neuwied, DE",922,7.4664546,50.4361866
"Nevers, FR",7536,3.162845,46.990896000000014
"New York, ET",5558,-74.0059728,40.7127753
"New York, US",14328.5,-74.0059728,40.7127753
"Nice, FR",2303.625,7.261953200000001,43.7101728
"Nidau, CH",652,7.2328515,47.0935327
"Nidderau, DE",649,8.8830827,50.2465175
"Niderrüti, CH",3089,8.3204231,47.0094984
"Nieder Kostenz, DE",5,7.3661836,49.94354790000001
"Nieder-Olm, DE",810,8.203453999999999,49.9048667
"Niederbipp, CH",6865,7.690717899999999,47.2716158
"Niederhasli, CH",2784,8.4871839,47.4788154
"Niederhünigen, CH",16458,7.6384848,46.8773026
"Niederkassel, DE",345,7.0376711,50.8153036
"Niederreifenberg, DE",460,8.4287411,50.2422431
"Niederschaeffolsheim, FR",109,7.73841,48.77225
"Niederwangen bei Bern, CH",1170,7.373888999999998,46.925556
"Niederzier, DE",1481,6.470278,50.8766134
"Nittel, LU",13,6.447082,49.6528065
"Nomeny, FR",1291,6.225187999999999,48.889691
"None, IT",385,NA,NA
"Novara, IT",1768,8.622161199999999,45.44692999999999
"Nuolen, CH",6012,8.8829887,47.1989229
"Nuvilly, CH",569,6.8330755,46.7823407
"Nyon, CH",740.5,6.2347852,46.3832683
"Nîmes, FR",1457.6666666666665,4.360054,43.836699
"Nörvenich, DE",522,6.6402649,50.8066888
"Nürnberg, DE",622.6666666666666,11.0766654,49.4521018
"Ober-Olm, DE",837,8.194038299999999,49.9385055
"Oberbuchsiten, CH",7162,7.7658565,47.3093912
"Oberentfelden, CH",1357,8.0467514,47.3564731
"Obernburg am Main, DE",889,9.132358499999999,49.8381779
"Oberrüti, CH",32,8.3944487,47.1659772
"Oberschwandorf, DE",629,8.6622205,48.5514077
"Obertshausen, DE",21368,8.8572969,50.075119
"Oberwil (BL), CH",7694,7.558200299999999,47.5159745
"Oberwil, CH",2022,7.558200299999999,47.5159745
"Odernheim am Glan, DE",3227,7.7042315,49.7646192
"Oensingen, CH",2417,7.715873599999999,47.2902794
"Offenbach am Main, DE",6185.6,8.776084299999999,50.09563620000001
"Offenburg, DE",6932.4,7.9498017,48.473451
"Oftringen, CH",8225.25,7.919865499999999,47.3129528
"Ohmden, DE",9,9.5272344,48.6459696
"Ollon, CH",6446,6.9916269,46.2957462
"Olten (Soletta, Schweiz), CH",10801,7.9037033,47.3499624
"Olten, CH",8546.625,7.9037033,47.3499624
"Olten, SC",10070,-81.1637245,33.836081
"Oltingen, CH",2574,7.9353781,47.4330669
"Oltingue, FR",7139,7.391487000000001,47.492301
"Omegna, IT",1382,8.414451999999999,45.8706086
"Onex, CH",1630.25,6.1002345,46.183541
"Opfikon, CH",3379,8.567109799999999,47.4346801
"Oppenweiler, DE",1358,9.4587063,48.9832962
"Orbassano, IT",845.5,7.5353625,45.00572649999999
"Orbe, CH",1508.3333333333333,6.5323588,46.7293301
"Orbey, FR",271,7.16026,48.126275
"Orgon, FR",2085,5.0291275,43.7926526
"Ornans, FR",375,6.147005,47.106041
"Oron-la-Ville, CH",228,6.8278795,46.5714166
"Ostermundigen, CH",925,7.487306900000001,46.9577083
"Ostfildern, DE",1115.5,9.2585976,48.7287991
"Ostrach, DE",625,9.381392499999999,47.9503649
"Othmarsingen, CH",806,8.215307899999999,47.4011262
"Ottiswil, CH",13355,7.6131632,47.2471427
"Ouhans, FR",475,6.293259,46.998726
"Oulens-sous-Echallens, CH",384.5,6.5770662,46.6419446
"Oyonnax, FR",1576,5.655335,46.257773
"Palma de Mallorca, ES",9334,2.6501603,39.5696005
"Palézieux-Village, CH",76,6.8312151,46.555633
"Pampa el Sol, PE",34,NA,NA
"Parabiago, IT",1808,8.9478154,45.558189
"Paris Congo, CF",0,NA,NA
"Paris, FR",8205,2.3522219,48.856614
"Parma, IT",1915,10.3279036,44.801485
"Paudex, CH",1323,6.6723034,46.5051579
"Payerne, CH",750,6.9405663,46.8220266
"Pensier, CH",688,7.1353098,46.8441324
"Penthalaz, CH",365,6.525440199999999,46.6097989
"Penthaz, CH",2762,6.539251200000001,46.5993131
"Pers-Jussy, FR",5052.5,6.264520999999999,46.109625
"Perth, AU",11407,115.861309,-31.9523123
"Peseux, CH",1040,6.8908413,46.9880679
"Pfedelbach, DE",153,9.507019099999999,49.1783423
"Pforzheim, DE",2479,8.6946286,48.8921862
"Pfullendorf, DE",347,9.2486506,47.925227
"Pfullingen, DE",334,9.2259533,48.46718
"Pfungstadt, DE",1494,8.603536199999999,49.8028671
"Pianezza, IT",4083,7.5586164,45.1104305
"Pirmasens, DE",1284.5,7.600216100000001,49.20155500000001
"Plan-de-Cuques, FR",67,5.462092000000001,43.345989
"Plan-les-Ouates, CH",1592.5,6.1145793,46.1668075
"Plattling, DE",516,12.8690362,48.7806071
"Plobsheim, FR",2216,7.726144000000001,48.46981100000001
"Plombières-lès-Dijon, FR",3420.5,4.971426999999999,47.339614
"Pohlheim, DE",47,8.7246052,50.50832150000001
"Polch, DE",1513,7.313218699999999,50.3015713
"Pont-Sainte-Marie, FR",254,4.0986459,48.319107
"Pontarlier, FR",2327.6,6.354241999999999,46.9041039
"Porsel, CH",447,6.866668,46.600002
"Port-sur-Saône, FR",1273,6.042594999999999,47.688693
"Prangins, CH",6730,6.2492927,46.3943352
"Prilly, CH",600.8333333333333,6.6052401,46.5346449
"Pringy, FR",428,2.558354,48.52171300000001
"Privas, FR",253,4.599038999999999,44.735269
"Pré Riond, CH",9,6.9198014,46.38128020000001
"Prévonloup, CH",757,6.881465899999999,46.6997998
"Puidoux, CH",148.33333333333334,6.7691772,46.4988452
"Puidoux-Gare, CH",114,6.76828,46.49348
"Pulheim, DE",15852.5,6.807685299999999,50.9995815
"Pully, CH",1453.5,6.6654949,46.5092681
"Písek, CZ",9896,14.158029,49.303454
"Püttlingen, DE",20,6.8832311,49.28332950000001
"Quetigny, FR",313,5.117044,47.312494
"Racconigi, IT",821,7.675913099999999,44.7682667
"Radelfingen bei Aarberg, CH",15457,7.2724685,47.0216132
"Radolfzell am Bodensee, DE",28159,8.9669098,47.745237
"Rammersweier, DE",933,7.969093199999999,48.4821275
"Randogne, CH",756,7.489301800000001,46.3128783
"Ranica, IT",1960,9.7145558,45.7262992
"Rastatt, DE",18102.5,8.2099996,48.8590212
"Rauenberg, DE",5307,8.703190200000002,49.27028019999999
"Raunheim, DE",516,8.4529177,50.0104109
"Ravensburg, DE",1342.2,9.6103864,47.78543579999999
"Reggio Emilia, IT",208.66666666666669,10.6296859,44.6989932
"Reichelsheim (Wetterau), DE",1771,8.873952100000002,50.358697
"Reichenbach im Kandertal, CH",1480,7.6940529,46.6254387
"Reigoldswil, CH",413,7.692039999999999,47.3977342
"Reims, FR",881.2,4.031696,49.258329
"Reinach (BL), CH",9702,7.5894365,47.4906819
"Remagen, DE",10861,7.2385533,50.57328039999999
"Remetschwil, CH",5103,8.3266242,47.4083745
"Remseck am Neckar, DE",536,9.2617893,48.8766534
"Remshalden, DE",32816,9.4259007,48.8079622
"Rendsburg, DE",5338,9.660699300000001,54.3080869
"Renens (VD), CH",714,6.59137,46.53381
"Renens, CH",947,6.59137,46.53381
"Renningen, DE",3436,8.9343957,48.7716629
"Reutlingen, DE",184.75,9.2046411,48.4912389
"Reyersviller, FR",510,7.393039,49.040055
"Rheinau, DE",743,7.9369349,48.6610305
"Rheinbach, DE",215,6.9477005,50.625307
"Rheine, DE",25,7.443409200000001,52.2815691
"Rheinfelden (Baden), DE",6656.125,7.785242800000001,47.5608377
"Rheinfelden, CH",11909,7.7922914,47.55219
"Rheinfelden, DE",9651,7.785242800000001,47.5608377
"Rheinhausen, DE",809,6.711867799999999,51.4060748
"Rhône-Alpes, FR",18,5.4502821,45.1695797
"Ribaute-les-Tavernes, FR",107,4.0848789,44.0374583
"Rickenbach, DE",993,7.982596300000001,47.6213492
"Riddes, CH",366,7.222514899999998,46.1731437
"Ried-Brig, CH",2540,8.01774,46.31726
"Riedlingen, DE",1992,9.471334599999999,48.1596486
"Riedstadt, DE",292,8.4671693,49.8431788
"Rifferswil, CH",26842,8.49602,47.2419
"Riggisberg, CH",13894,7.4783583,46.8101394
"Ringsheim, DE",5616,7.781612099999999,48.2459643
"Rive-de-Gier, FR",3529,4.615349,45.52769199999999
"Rivoli, IT",2853,7.528754299999999,45.0607417
"Rodersdorf, CH",953,7.456608600000001,47.48039130000001
"Rodgau, DE",1580.25,8.8769235,50.0012757
"Roeschwoog, FR",449,8.035502,48.827677
"Roggwil (BE), CH",5496,7.8235104,47.2405859
"Rolle, CH",638.5,6.3397549,46.4612971
"Romans-sur-Isère, FR",540,5.052735,45.044236
"Romanshorn, CH",2299,9.3771959,47.5657078
"Romont, CH",828,6.9118086,46.691887
"Ronneburg, DE",28504,9.0437882,50.2169276
"Roppe, FR",500,6.919823,47.669670000000004
"Rossiglione, IT",734,8.668979,44.5673404
"Rothenburg, CH",6570,8.2716874,47.0936155
"Rothrist, CH",9130.5,7.8774496,47.302214
"Rottenburg am Neckar, DE",1256.5,8.9409486,48.4791318
"Rottweil, DE",1199,8.628453,48.1652577
"Roussillon, FR",674,4.811172,45.37325500000001
"Roville-devant-Bayon, FR",701,6.291683,48.466803
"Rubigen, CH",4199,7.543245300000001,46.8999997
"Rudolfstetten-Friedlisberg, CH",5003,8.3807414,47.3690655
"Rumilly, FR",7415.75,5.942356999999999,45.867137
"Rupperswil, CH",581,8.1290407,47.4051347
"Ruswil, CH",3511,8.1262881,47.0840593
"Rödermark-Messenhausen, DE",370,8.8026118,49.9906941
"Römerberg, DE",119,8.4035318,49.28839809999999
"Rüdesheim am Rhein, DE",629,7.9301124,49.98214429999999
"Rüeggisberg, CH",4249,7.438559199999999,46.821399
"Rüfenacht, CH",4175,7.53121,46.92968
"Rüschlikon, CH",2324,8.5529459,47.3063522
"Rüsselsheim, DE",5814.2,8.4216976,49.9887497
"Rüti, CH",285,8.854421,47.2566995
"Rüttenen, CH",38702,7.531701,47.2311852
"Saarbrücken, DE",762.2,6.997547,49.2381697
"Saarbrücken, FR",1022,6.997547,49.2381697
"Saarburg, DE",1777,6.556151,49.60580479999999
"Saarlouis, DE",3153.3333333333335,6.752286499999999,49.3134606
"Safenwil, CH",1832.5,7.9870207,47.3212415
"Saint-André-de-la-Roche, FR",502,7.286313,43.748228
"Saint-Bernard, FR",166,5.0171659,47.16005
"Saint-Denis-lès-Bourg, FR",923,5.189789,46.2025999
"Saint-Dié-des-Vosges, FR",766.5,6.947767,48.2874679
"Saint-Etienne, FR",11257,4.3871779,45.439695
"Saint-Félix, FR",3313,5.970934,45.799902
"Saint-Genis-Laval, FR",19967,4.792768,45.691999
"Saint-Genis-Pouilly, FR",6385,6.02513,46.2437479
"Saint-Hilaire-de-la-Côte, FR",1317,5.327664,45.390428
"Saint-Imier, CH",2076,6.9962252,47.1522207
"Saint-Ismier, FR",232,5.828113,45.248534
"Saint-Jean-de-Bournay, FR",3142.5,5.139305999999999,45.503532
"Saint-Jorioz, FR",309,6.16444,45.833395
"Saint-Julien-en-Genevois, FR",122,6.081338,46.144516
"Saint-Laurent-de-la-Salanque, FR",12622,2.989793,42.773217
"Saint-Laurent-du-Var, FR",145,7.189811,43.673417
"Saint-Maurice, CH",308,7.0047948,46.214941
"Saint-Paulet-de-Caisson, FR",8074,4.597773,44.263253
"Saint-Pierre-en-Faucigny, FR",100,6.36696,46.060761
"Saint-Prex, CH",208.5,6.458343500000001,46.4829113
"Saint-Priest, FR",2289,4.947071,45.698938
"Saint-Privat-la-Montagne, FR",1371,6.037669999999999,49.18795300000001
"Saint-Sauveur, FR",510,6.519788000000001,44.54128499999999
"Saint-Sylvestre, CH",276,7.220525999999999,46.7404313
"Saint-Ursanne, CH",1452,7.1542802,47.3642815
"Saint-Étienne, FR",1054,4.3871779,45.439695
"Sainte-Croix-en-Plaine, FR",1025,7.384458,48.008941
"Sainte-Magnance, FR",2891,4.074517999999999,47.45015
"Salach, DE",10200,9.7381237,48.6913065
"Sallanches, FR",680.5,6.630556899999999,45.936661
"Salon-de-Provence, FR",147,5.097022,43.640199
"Saluzzo, IT",22016,7.492735499999999,44.6445404
"Sampigny, FR",1578,5.511813999999999,48.825108
"Samstagern (Zurich, Schweiz), CH",9850,8.6806174,47.1926627
"Samstagern, CH",7256,8.6806174,47.1926627
"San Mauro Torinese, IT",333,7.765355399999999,45.1020871
"Sankt Augustin, DE",2092.6666666666665,7.187578599999999,50.7694775
"Sankt Blasien, DE",7113,8.128072099999999,47.76011399999999
"Sankt Gallen, CH",4927.428571428572,9.3767173,47.4244818
"Sankt Ingbert, DE",264,7.1118995,49.2774456
"Santo Stefano di magra, IT",587,9.9156487,44.16134580000001
"Sarajevo, BA",10553,18.4130763,43.8562586
"Sarmenstorf, CH",3808,8.251218999999999,47.310589
"Sarnen, CH",4650,8.245675799999999,46.8959313
"Savigliano, IT",842,7.6765157,44.6487602
"Savièse, CH",315,7.349158099999999,46.2511752
"Schaffhausen, CH",3277.4,8.6380488,47.6958897
"Schattdorf, CH",5270,8.648159399999999,46.8642346
"Scheiu de Sus, RO",952,25.192209,44.9549685
"Schlieren, Zurich, CH",266,8.448795,47.3982611
"Schmelz, DE",1237,-93.050805,45.0112541
"Schongau, DE",4215,10.8942968,47.8150246
"Schopfheim, DE",1051.6666666666667,7.8235713,47.6518603
"Schriesheim, DE",1607,8.661249999999999,49.4737672
"Schruns, AT",112,9.9198776,47.0800395
"Schupfart, CH",7232,7.9653934,47.5134984
"Schwaikheim, DE",684,9.3526778,48.8732234
"Schwalbach am Taunus, DE",2131,8.5288048,50.1541966
"Schwanau, DE",123,7.7565447,48.385376
"Schwarzenburg, CH",1737,7.342905699999999,46.81904790000001
"Schweich, DE",163,6.752587999999999,49.8196875
"Schwenningen, DE",1897,8.4640869,48.0594021
"Schwetzingen, DE",236,8.5722445,49.3852193
"Schwyz, CH",2279,8.652988400000002,47.0207138
"Schwäbisch Gmünd, DE",356,9.8045704,48.7994019
"Schwäbisch Hall, DE",1735,9.7372649,49.1124645
"Schönbühl, CH",1829,7.499723999999999,47.02056779999999
"Schöneck, DE",9860,12.3356774,50.3936523
"Schönwald im Schwarzwald, DE",2901.5,8.2048757,48.10411000000001
"Schübelbach, CH",1965,8.9282867,47.173891
"Schüpfen, CH",31448,7.376169999999999,47.037219
"Schüpfheim, CH",84,8.016355299999999,46.95198920000001
"Sciez, FR",1001,6.374511000000001,46.332021
"Seeheim-Jugenheim, DE",1120,8.6585038,49.7620043
"Seelbach, DE",2574,NA,NA
"Seftigen, CH",20642,7.505492599999999,46.8318401
"Semsales, CH",8,6.929259999999999,46.57386
"Senden, DE",26189,7.482635699999999,51.8587626
"Seon, CH",2087,8.1588699,47.3481098
"Servion, CH",2088,6.77879,46.57147
"Settimo Torinese, IT",1463,7.7728777,45.1383266
"Sexau, DE",4829,7.8979842,48.0933712
"Siegburg, DE",2683.1666666666665,7.2074514,50.7998473
"Sierre, CH",149,7.533536199999999,46.29413110000001
"Siglistorf, CH",51560,8.379833999999999,47.5451227
"Sigmaringen, DE",2993,9.2147866,48.0867209
"Sigriswil, CH",22809,7.7132831,46.7168545
"Sillingy, FR",363,6.035302,45.946611
"Sindelfingen, DE",5472.6,9.0044053,48.7074558
"Singeloe, LR",4940,NA,NA
"Singen (Hohentwiel), DE",9370,8.8722387,47.7670971
"Sins, CH",563,NA,NA
"Sinsheim, DE",163,8.8884905,49.2488637
"Sion, CH",2169,7.360625999999999,46.2331221
"Sissach, CH",1616.6666666666667,7.810661,47.4643945
"Siziano, IT",1862,9.2023619,45.3174277
"Soest, DE",6562,5.299196999999999,52.1763515
"Solduno, CH",2006,8.7782578,46.1699368
"Solothurn, CH",4200.058823529411,7.532291,47.2088348
"Somma Lombardo, IT",5061,8.7068019,45.6827443
"Sommancourt, FR",5,5.035163,48.504079
"Sonceboz-Sombeval, CH",558,7.178649399999999,47.1957402
"Sonnental, CH",3810,NA,NA
"Sonthofen, DE",6387,10.2808617,47.5161161
"Sorbiers, FR",2,4.449389,45.490467
"Souain-Perthes-lès-Hurlus, FR",422,4.544399,49.184097
"Spaichingen, DE",660,8.7347582,48.0748189
"Speyer, DE",5260.5,8.441217199999999,49.3172765
"Spiez, CH",1009,7.6791524,46.6884826
"Spreitenbach, CH",3644,8.3638854,47.4221702
"Sprendlingen, DE",643,7.9845736,49.8603054
"St. Gallen, AT",4431,9.3767173,47.4244818
"Stadel bei Niederglatt, CH",2567,8.4657088,47.5283265
"Staffelfelden, FR",1069,7.255358999999999,47.82685499999999
"Stans, CH",9041.75,8.3659672,46.9571926
"Stansstad, CH",8467,8.3374207,46.977594
"Steckborn, CH",2233,8.982282399999999,47.66804519999999
"Steffisburg, CH",10783,7.6347832,46.7788438
"Stein (AG), CH",1535,7.955177399999999,47.544055
"Steinen, DE",3625,7.737990299999999,47.64439540000001
"Steinhausen, CH",7183,8.485017299999999,47.197193
"Stettbach, CH",3953,8.618012799999999,47.3971476
"Stockstadt am Rhein, DE",843,8.4686308,49.8074541
"Stockum-Püschen, DE",37,7.900874699999999,50.6054493
"Stolberg (Rheinland), DE",160,6.225193399999999,50.7730884
"Strasbourg, FR",462.14285714285717,7.752111299999999,48.5734053
"Strengelbach, CH",8337,7.9290323,47.27907769999999
"Studen, CH",62,7.302630199999999,47.1115805
"Stuttgart (Baden-Württemberg), DE",1546,9.1829321,48.7758459
"Stuttgart, DE",3887.202702702702,9.1829321,48.7758459
"Stühlingen, DE",760,8.4455184,47.74541869999999
"Subingen, CH",3730,7.614049700000001,47.19565799999999
"Suhr, CH",7654.428571428571,8.0795037,47.370902
"Sulz am Neckar, DE",1409,8.6344165,48.3537106
"Sulzbach an der Murr, DE",624,9.5025263,49.003352
"Sursee, CH",15896.333333333332,8.111131199999999,47.1714819
"Tamm, DE",1005,NA,NA
"Tassin-la-Demi-Lune, FR",1620,4.776921,45.761337
"Tauberbischofsheim, DE",2674,9.6592956,49.6293817
"Taunusstein, DE",362,8.149593900000001,50.1396151
"Tecknau, CH",4098,7.885791499999999,47.44851389999999
"Telfs, AT",91,11.0681692,47.3070652
"Thann, FR",1694,7.102382,47.810702
"Thaon-les-Vosges, FR",285,6.419186,48.250554
"Therwil, CH",3447,7.5532808,47.4990611
"Thoiry, FR",274,1.794903,48.865263
"Thonon-les-Bains, FR",2488.8571428571427,6.477634999999999,46.373565
"Thun, CH",5714.411764705883,7.6279881,46.7579868
"Thurey, FR",2786,5.121315,46.7428979
"Thurins, FR",389,4.641063,45.682808
"Thyez, FR",2918.25,6.542144,46.084489
"Thônex, CH",14905,6.202767,46.19283739999999
"Tignieu-Jameyzieu, FR",3865,5.185379,45.733945
"Titisee-Neustadt, DE",7339,8.191162499999999,47.9237985
"Torino, IT",4508.060606060604,7.686864,45.0703393
"Toulon, FR",1811,5.928,43.124228
"Toulon-la-Montagne, FR",1,3.881446,48.8559399
"Toulouse-le-Château, FR",134,5.588682899999999,46.823059
"Tours-en-Savoie, FR",590,6.440176,45.65487
"Tramelan, CH",1900,7.102975,47.2235029
"Treffort-Cuisiat, FR",171,5.368560500000001,46.2846752
"Trento, IT",253,11.1175392,46.0512004
"Triberg, DE",202,8.2324351,48.1301564
"Triengen, CH",1342,8.076161899999999,47.2354436
"Trier, DE",3208.2,6.6371433,49.749992
"Trierweiler, DE",478,6.5597045,49.7616083
"Trimbach, CH",12632,7.904092200000001,47.3639385
"Troisdorf, DE",1325,7.1430246,50.8177471
"Troyes, FR",10124,4.0744009,48.2973451
"Trévillers, FR",458,6.866333999999999,47.281974
"Trévoux, FR",18391,4.774296,45.94094
"Turgi, CH",7192.333333333333,8.2547897,47.4887974
"Turin, IT",8503,7.686864,45.0703393
"Tuttlingen, DE",210.5,8.8192095,47.98233159999999
"Tuzla, BA",4705,18.6734688,44.53746109999999
"Tübingen, DE",7056.333333333334,9.0576448,48.5216364
"Uerikon, CH",3608,8.755659999999999,47.23666
"Ugine, FR",352,6.419968,45.752939
"Uhingen, DE",0,9.586083799999999,48.7112849
"Ulm, DE",2380.769230769231,9.987607599999999,48.4010822
"Umkirch, DE",384,7.7675532,48.0311907
"Unter Getwing, CH",979,7.6957269,46.3113641
"Untergruppenbach, DE",579,9.2760275,49.0913259
"Unterseen (Berna, Schweiz), CH",15561,7.848157400000001,46.6852116
"Unterseen, CH",1359,7.848157400000001,46.6852116
"Unterägeri, CH",9125,8.5830915,47.1368093
"Usingen, DE",900.5,8.5320064,50.3353122
"Uster, CH",4315.333333333333,8.717873899999999,47.3482747
"Utzenstorf, CH",16683,7.5588034,47.12816670000001
"Vacheresse, FR",237.5,6.673627000000001,46.324027
"Vaihingen an der Enz, DE",1612,8.961208000000001,48.9334357
"Valdahon, FR",166,6.345523,47.147594
"Valence, FR",373,4.89236,44.933393
"Valencia, ES",5880,-0.3762881,39.4699075
"Valentigney, FR",917,6.837516,47.4614199
"Vallecrosia, IT",215,7.6450458,43.7837366
"Varallo, IT",318,8.2479418,45.8158862
"Variney- Chez Roncoz, IT",120,7.3102991,45.76811060000001
"Vaulx-en-Velin, FR",214,4.922661,45.782029
"Vauvillers, FR",751,6.098173000000001,47.922171
"Vaux-sous-Aubigny, FR",227,5.285016,47.657295
"Vercel-Villedieu-le-Camp, FR",502,6.398699,47.18303
"Vercelli, IT",3216,8.418573499999999,45.32022720000001
"Verdello, IT",3371,9.6303295,45.6051394
"Vernier, CH",3513.6666666666665,6.1052686,46.2122638
"Verona, IT",61,10.9916215,45.43838419999999
"Versoix, CH",1731,6.1657813,46.2876938
"Versonnex, FR",158,6.098042,46.304598
"Vesoul, FR",4992.5,6.15428,47.61978800000001
"Vevey, CH",2850.9090909090905,6.8419192,46.4628333
"Veynes, FR",346,5.825864999999999,44.540798
"Veyrier, CH",454,6.178396999999999,46.1660489
"Vichy, FR",3563,3.425488,46.131859
"Vienne, FR",2828,4.874339,45.525587
"Viernheim, DE",247,8.5784877,49.5412437
"Vieu-d'Izenave (Rhône-Alpes), FR",4139,5.529846,46.08130999999999
"Vigevano, IT",99,8.8466726,45.3218787
"Villars, FR",112,4.352042,45.4668096
"Villars-le-Terroir, CH",443,6.639048900000001,46.65755
"Villars-sous-Yens, CH",387,6.428715100000001,46.5101868
"Villars-sur-Ollon, CH",383,7.0550134,46.2984285
"Ville-la-Grand, FR",294,6.2471439,46.2016149
"Villefontaine, FR",3840,5.150093,45.613538
"Villeneuve (VD), CH",831,6.928768400000001,46.396608
"Villeneuve, CH",163,6.928768400000001,46.396608
"Villers-le-Lac, FR",3321,6.667754,47.059247
"Villeurbanne, FR",2106.5,4.8901709,45.771944
"Villingen-Schwenningen, DE",3731.75,8.4640869,48.0594021
"Villmergen, CH",24369,8.2446497,47.3475212
"Villnachern, CH",10102,8.1631666,47.46941200000001
"Villorsonnens, CH",1159,6.9952992,46.716186
"Vimercate, IT",5650,9.368413499999999,45.6158614
"Viry, FR",462,6.037473899999999,46.115447
"Visperterminen, CH",3769,7.90302,46.26013
"Viuz-en-Sallaz, FR",483,6.410160899999999,46.1472759
"Viviers-du-Lac, FR",1,5.905503,45.64816099999999
"Voiron, FR",1598.75,5.591349,45.362713
"Volketswil, CH",5839.333333333333,8.687449599999999,47.3895115
"Vougy, FR",233,6.49116,46.067151
"Vouziers, FR",483,4.700375,49.39826499999999
"Vuadens, CH",566,7.025001199999999,46.6180319
"Vuillecin, FR",117,6.322277,46.938892
"Vuippens, CH",568,7.074999999999999,46.66
"Vénissieux, FR",2924,4.8844649,45.699594
"Vétraz-Monthoux, FR",1269,6.258241,46.174611
"Völklingen, DE",622,6.8588948,49.2556226
"Wadern, DE",1237.3333333333333,6.889596999999999,49.5409429
"Waghäusel, DE",451,8.5154348,49.2495336
"Wahlen bei Laufen, CH",1363,7.515645099999999,47.4012701
"Waimes, BE",19,6.109596,50.4144444
"Walchwil, CH",376,8.5162335,47.100183
"Waldachtal, DE",2,8.589798799999999,48.4830796
"Waldbronn, DE",2337,8.4725874,48.9277695
"Waldegg, CH",1132,16.05146,47.86888
"Waldkirch, DE",4198.2,7.958646799999999,48.0914682
"Waldshut-Tiengen, DE",6122.727272727274,8.2719155,47.6327253
"Walenstadt, CH",1900,9.31603,47.12398
"Walldorf, DE",513,8.6427693,49.3063689
"Wallisellen, CH",9700,8.588972199999999,47.4156189
"Wangen bei Olten, CH",9958,7.8661678,47.3424627
"Wangen im Allgäu, DE",35,9.8318005,47.6874999
"Wangen, FR",328,7.465708999999999,48.617905
"Wannweil, DE",896,9.152804999999999,48.5139062
"Wasen im Emmental, CH",2980,7.7446642,47.0284465
"Wattenheim, DE",6,8.062541099999999,49.5206047
"Wauwil, CH",7,8.0237036,47.1862897
"Weesen, CH",2600,9.1052748,47.1362592
"Weggis, CH",346,8.425278,47.0338792
"Wehr, CH",1059,7.905753199999999,47.6300987
"Wehr, DE",3458,7.905753199999999,47.6300987
"Weidenstetten, DE",6399,9.995404299999999,48.5517986
"Weil am Rhein, DE",5324.75,7.6198121,47.5934368
"Weilheim in Oberbayern, DE",291,11.1427463,47.84223670000001
"Weilheim, DE",224,11.1427463,47.84223670000001
"Weinfelden, CH",13.5,9.1084456,47.5660299
"Weingarten (Baden), DE",6814,8.5273525,49.0472729
"Weinstadt, DE",725,9.364447499999999,48.8108645
"Weisel, DE",785,NA,NA
"Weiterstadt, DE",165,8.5991073,49.8991611
"Weißenthurm, DE",2592,7.456775299999999,50.41627039999999
"Wembach, DE",1237,7.8871223,47.7734973
"Wendlingen am Neckar, DE",500,9.3827676,48.671757
"Wertheim, DE",599,9.512851099999999,49.7586035
"Wesseling, DE",3128,6.9725385,50.8255624
"Wettingen, CH",7896,8.3265988,47.4659503
"Wetzikon (ZH), CH",1029,8.801356,47.3270602
"Wetzikon, CH",6493.75,8.801356,47.3270602
"Wetzlar, DE",11.5,8.5002611,50.5635273
"Wiesbaden, DE",3961.7037037037053,8.239760799999999,50.0782184
"Wiesloch, DE",17971,8.6962064,49.2953714
"Wiggen, CH",1612,NA,NA
"Wikon, CH",7571,7.963281299999999,47.26680510000001
"Wil, CH",692,9.0479097,47.4635617
"Wildberg, DE",522,8.7469109,48.6241922
"Wilderswil, CH",5103,7.8689183,46.6652174
"Wiler bei Utzenstorf, CH",1008,7.5591746,47.1523824
"Willstätt, DE",144,7.8935135,48.5411474
"Windisch, CH",2721,8.2159655,47.4789604
"Winterthur, CH",5572.666666666666,8.723688899999999,47.4988196
"Wittlingen, DE",7223,7.647751599999999,47.6543973
"Wohlen, CH",3976.4,8.2768762,47.3493653
"Wolfenschiessen, CH",13544,8.3959084,46.9081639
"Wolfschlugen, DE",259,9.2923744,48.65200979999999
"Worms, DE",3666.333333333333,8.3507182,49.6341372
"Wutöschingen, DE",43430,8.366225700000001,47.6589771
"Wyhlen, CH",21242,7.658088100000001,47.5523554
"Wädenswil, CH",7653.5,8.6718189,47.2296871
"Wünnewil-Flamatt, CH",709,7.2757147,46.87469189999999
"Würenlingen, CH",48980,8.254569499999999,47.533865
"Würenlos, CH",2147,8.363131,47.4416652
"Würselen, DE",38,6.1320672,50.8216502
"Würzburg, DE",20,9.9533548,49.79130439999999
"Yssingeaux, FR",1917,4.123734,45.142667
"Yverdon, CH",83,6.641183,46.7784736
"Yverdon-les-Bains, CH",2988.8461538461534,6.641183,46.7784736
"Yvonand, CH",176,6.7455463,46.7994765
"Zell im Wiesental, DE",1245.5,7.8572617,47.7095219
"Zermatt, CH",308,7.749117000000001,46.0207133
"Zimmern ob Rottweil, DE",3941,8.591023500000002,48.1674583
"Zofingen, CH",1814,7.9447619,47.2888449
"Zollbrück, CH",2128,7.741587099999999,46.9751272
"Zollikofen, CH",7451,7.4513399,46.9982563
"Zuchwil, CH",2609,7.557985800000001,47.203546
"Zufikon, CH",6684,8.3577623,47.34558920000001
"Zug, CH",9728.5,8.5154946,47.1661672
"Zurich, CH",7775.18181818182,8.541694,47.3768866
"Zurigo, CH",47475,8.541694,47.3768866
"Zuzenhausen, DE",226,8.822653599999999,49.2968105
"Zuzwil, CH",1997,9.111498,47.47501949999999
"Zweibrücken, DE",460.5,7.3634022,49.2450528
"Zweisimmen, CH",3413,7.372062799999999,46.5540893
"Zwillikon, CH",940,8.4312741,47.28762160000001
"Zúrich, CH",2304,8.541694,47.3768866
"Zülpich, DE",165,6.6549936,50.6938699
"Zürich, CH",6752.153409090925,8.541694,47.3768866
"Zürichhorn, CH",7527,8.5519,47.3535
"Écublens, Vaud, CH",664,6.561525199999999,46.5296363
"Épinal, FR",1068,6.449403,48.172402
"Évreux, FR",1008,1.151361,49.0270129
"Öhringen, DE",664,9.5029492,49.199931
"Östringen, DE",99,8.706896799999999,49.2176652
"Übach-Palenberg (Nordrhein-Westfalen), DE",475,6.1186928,50.919128
"Überherrn, FR",3491,6.7006131,49.2391691
"Überlingen, DE",1061,9.1702772,47.7661746
"İstanbulboğazı, TR",280.75,37.708668,41.06509
"Берлин, DE",3417,13.404954,52.52000659999999
"Вецикон, CH",1119,8.801356,47.3270602
"Киев, UA",1239,30.5234,50.4501
"ซูริก, CH",2974,8.541694,47.3768866
